City_ID,City,Lat,Lng,Max Temp,Humidity,Cloudiness,Wind Speed,Country,Date
0,kyzylorda,44.8528,65.5092,84.22,34,0,4.47,KZ,1723052629
1,taroa,8.7058,171.2275,81.66,75,87,9.44,MH,1723052631
2,la passe,45.5549,-0.8967,74.41,62,99,13.78,FR,1723052632
3,petropavlovsk-kamchatsky,53.0452,158.6483,55.99,100,75,6.71,RU,1723052633
4,saudarkrokur,65.7461,-19.6394,47.35,85,100,5.06,IS,1723052634
5,anadyr,64.75,177.4833,45.1,75,75,4.47,RU,1723052636
6,bethel,41.3712,-73.414,66.02,89,100,8.05,US,1723052637
7,port elizabeth,-33.918,25.5701,64.31,45,0,4.61,ZA,1723052638
8,kuala terengganu,5.3302,103.1408,78.75,94,20,2.3,MY,1723052639
9,sault ste. marie,46.5168,-84.3333,75.49,46,20,3.44,CA,1723052493
10,adamstown,-25.066,-130.1015,65.55,66,15,8.68,PN,1723052642
11,west island,-12.1568,96.8225,80.58,78,40,13.8,CC,1723052643
12,moreira sales,-24.0622,-53.0069,90.03,20,24,15.64,BR,1723052645
13,puerto natales,-51.7236,-72.4875,34.25,75,0,5.75,CL,1723052646
14,tiksi,71.6872,128.8694,41.32,99,71,1.3,RU,1723052647
15,luderitz,-26.6481,15.1594,54.27,85,29,1.21,NA,1723052649
16,tobelo,1.7284,128.0095,78.84,83,90,6.49,ID,1723052650
17,huarmey,-10.0681,-78.1522,68.13,72,24,11.68,PE,1723052651
18,rongelap,11.1635,166.8941,82.69,75,96,11.12,MH,1723052654
19,ilulissat,69.2167,-51.1,41.02,93,100,4.61,GL,1723052655
20,iqaluit,63.7506,-68.5145,47.93,70,20,5.75,CA,1723052656
21,college,64.8569,-147.8028,68.9,70,75,4.61,US,1723052657
22,afaahiti,-17.75,-149.2833,76.87,85,19,16.55,PF,1723052658
23,sterling,39.0062,-77.4286,87.22,71,75,6.91,US,1723052660
24,nar'yan-mar,67.6713,53.087,45.66,86,5,8.79,RU,1723052661
25,worgl,47.4833,12.0667,70.12,94,98,0.29,AT,1723052662
26,paradip garh,20.3167,86.6167,80.83,84,96,6.87,IN,1723052663
27,blackmans bay,-43.0167,147.3167,48.33,79,99,8.23,AU,1723052664
28,osby,56.3816,13.9936,70.02,72,100,7.61,SE,1723052665
29,enewetak,11.3474,162.3373,83.53,74,87,11.18,MH,1723052667
30,east london,-33.0153,27.9116,63.54,82,0,6.91,ZA,1723052668
31,aasiaat,68.7098,-52.8699,39.2,92,90,7.72,GL,1723052669
32,bilibino,68.0546,166.4372,39.94,72,0,4.38,RU,1723052670
33,mount gambier,-37.8333,140.7667,52.29,58,100,12.12,AU,1723052671
34,kodiak,57.79,-152.4072,54.91,94,0,6.91,US,1723052672
35,beau vallon,-20.4189,57.6953,71.83,73,40,4.61,MU,1723052674
36,grytviken,-54.2811,-36.5092,25.14,71,66,12.5,GS,1723052675
37,sao joao da barra,-21.6403,-41.0511,82.49,75,0,21.03,BR,1723052676
38,punta arenas,-53.15,-70.9167,35.71,87,75,10.36,CL,1723052477
39,lazaro cardenas,17.9583,-102.2,87.91,59,100,9.01,MX,1723052678
40,invercargill,-46.4,168.35,44.02,92,95,1.99,NZ,1723052679
41,port-aux-francais,-49.35,70.2167,34.07,99,100,25.97,TF,1723052681
42,namibe,-15.1961,12.1522,62.69,90,24,12.33,AO,1723052682
43,boundiali,9.5217,-6.4869,75.06,93,100,0.83,CI,1723052683
44,laguna de perlas,12.3429,-83.6712,82.49,89,100,9.1,NI,1723052684
45,hawaiian paradise park,19.5933,-154.9731,76.89,90,100,0.0,US,1723052685
46,vorgashor,67.5833,63.95,47.37,70,4,5.7,RU,1723052686
47,hamilton,39.1834,-84.5333,85.77,65,0,12.66,US,1723052574
48,pancas,-19.225,-40.8514,82.87,35,14,4.94,BR,1723052690
49,edinburgh of the seven seas,-37.0676,-12.3116,46.74,65,97,32.75,SH,1723052691
50,qaqortoq,60.7167,-46.0333,46.81,94,100,5.95,GL,1723052692
51,ribeira grande,38.5167,-28.7,79.2,69,20,10.0,PT,1723052693
52,ust-nera,64.5667,143.2,51.3,94,100,2.84,RU,1723052694
53,san antonio de pale,-1.4014,5.6325,73.22,83,100,10.16,GQ,1723052695
54,wuxue,29.8506,115.5525,82.49,66,15,2.82,CN,1723052697
55,olonkinbyen,70.9221,-8.7187,42.57,100,100,10.94,SJ,1723052698
56,remire-montjoly,4.9167,-52.2667,89.64,70,21,13.8,GF,1723052537
57,isafjordur,66.0755,-23.124,46.44,87,100,10.36,IS,1723052700
58,bandundu,-3.3167,17.3667,87.28,30,63,1.97,CD,1723052701
59,kingston,17.997,-76.7936,93.16,66,20,21.85,JM,1723052703
60,vol'sk,52.0333,47.3833,71.24,60,93,5.3,RU,1723052704
61,magadan,59.5667,150.8,50.05,92,81,4.99,RU,1723052706
62,yellowknife,62.456,-114.3525,69.42,54,75,10.36,CA,1723052707
63,ta`u,-14.2336,-169.5144,76.32,79,100,21.63,AS,1723052708
64,nhamunda,-2.1861,-56.7131,104.58,21,3,1.95,BR,1723052710
65,port mathurin,-19.6833,63.4167,72.46,73,12,10.33,MU,1723052711
66,curaca,-8.9903,-39.9094,90.28,24,45,11.92,BR,1723052712
67,dudinka,69.4058,86.1778,50.09,61,1,17.09,RU,1723052713
68,albany,42.6001,-73.9662,75.16,75,89,1.01,US,1723052585
69,takoradi,4.8845,-1.7554,75.85,80,100,10.58,GH,1723052715
70,flying fish cove,-10.4217,105.6791,76.68,88,75,12.66,CX,1723052718
71,georgetown,5.4112,100.3354,82.33,78,20,4.61,MY,1723052441
72,kapuskasing,49.4169,-82.4331,73.49,40,75,5.75,CA,1723052720
73,whitehorse,60.7161,-135.0538,66.97,43,0,17.27,CA,1723052721
74,nyrob,60.733,56.7202,52.05,73,99,4.63,RU,1723052722
75,tazovsky,67.4667,78.7,49.33,72,100,13.49,RU,1723052723
76,vila franca do campo,37.7167,-25.4333,77.41,83,82,8.1,PT,1723052725
77,sretensk,52.2453,117.7093,55.35,88,9,1.39,RU,1723052726
78,daru,-9.0763,143.2092,75.85,86,88,15.14,PG,1723052727
79,pombas,17.1503,-25.0201,82.18,75,54,10.09,CV,1723052728
80,saipan,15.1355,145.701,83.1,83,75,0.0,MP,1723052729
81,thunder bay,48.4001,-89.3168,73.38,56,75,8.05,CA,1723052730
82,biharamulo,-2.6319,31.3089,68.86,45,8,3.33,TZ,1723052732
83,arraial do cabo,-22.9661,-42.0278,85.96,51,0,17.27,BR,1723052733
84,bakchar,57.0186,82.0711,60.12,98,86,5.7,RU,1723052734
85,thompson,55.7435,-97.8558,55.56,82,75,8.05,CA,1723052658
86,maintirano,-18.0667,44.0167,73.81,80,0,4.88,MG,1723052736
87,fale old settlement,-9.3852,-171.2468,81.12,75,97,19.35,TK,1723052737
88,dakhla,23.6848,-15.958,73.42,73,14,26.46,EH,1723052738
89,umba,66.6871,34.3429,53.96,56,5,1.21,RU,1723052740
90,wailua homesteads,22.0669,-159.378,77.79,85,0,12.66,US,1723052741
91,olinda,-8.0089,-34.8553,82.13,65,40,16.11,BR,1723052742
92,stanley,54.868,-1.6985,62.62,71,20,12.66,GB,1723052743
93,mitchell,43.7094,-98.0298,75.74,73,0,10.36,US,1723052541
94,magistral'nyy,56.1725,107.4458,57.51,94,64,2.86,RU,1723052745
95,bredasdorp,-34.5322,20.0403,51.03,94,3,5.46,ZA,1723052746
96,worthington,40.0931,-83.018,82.17,72,100,8.05,US,1723052726
97,pahrump,36.2083,-115.9839,99.45,22,66,7.0,US,1723052750
98,klyuchi,52.2667,79.1667,65.26,87,100,8.48,RU,1723052751
99,purpe,64.4803,76.6897,54.84,57,100,10.29,RU,1723052752
100,waitangi,-43.9535,-176.5597,47.82,71,33,15.59,NZ,1723052753
101,nadym,65.5333,72.5167,42.96,90,66,10.04,RU,1723052755
102,fortuna,40.5982,-124.1573,63.52,81,0,0.0,US,1723052756
103,new norfolk,-42.7826,147.0587,49.5,95,97,2.98,AU,1723052757
104,flin flon,54.7682,-101.865,53.44,82,100,12.66,CA,1723052758
105,jurilovca,44.7667,28.8667,75.29,71,0,6.38,RO,1723052759
106,praia da vitoria,38.7333,-27.0667,79.05,61,20,6.22,PT,1723052761
107,lethem,3.3803,-59.7968,85.89,66,24,2.8,GY,1723052762
108,saldanha,-33.0117,17.9442,55.45,89,0,6.22,ZA,1723052763
109,vadso,70.0744,29.7487,76.08,49,0,9.22,NO,1723052764
110,shatrovo,56.5167,64.6333,57.43,81,99,9.15,RU,1723052767
111,richards bay,-28.783,32.0377,69.06,71,0,16.35,ZA,1723052768
112,phrae,18.0833,100.0,70.61,97,100,1.23,TH,1723052769
113,englewood,39.6478,-104.9878,92.21,36,20,8.05,US,1723052718
114,barclayville,4.6797,-8.2339,75.45,76,100,7.34,LR,1723052774
115,hithadhoo,-0.6,73.0833,84.16,67,100,2.15,MV,1723052775
116,hammerfest,70.6634,23.6821,77.45,31,0,4.61,NO,1723052776
117,nantucket,41.2835,-70.0995,68.0,82,100,16.11,US,1723052561
118,tsiombe,-25.3,45.4833,68.04,79,93,13.98,MG,1723052779
119,center,31.5107,-96.4247,98.26,47,0,1.01,US,1723052780
120,constantia,44.1833,28.65,70.7,70,51,5.26,RO,1723052660
121,zeya,53.75,127.2667,62.13,96,100,4.23,RU,1723052782
122,havre,49.5833,0.3333,67.33,77,0,8.05,FR,1723052783
123,sao vicente,-23.9631,-46.3919,91.58,41,20,5.75,BR,1723052655
124,inebolu,41.9747,33.7608,73.6,74,10,2.33,TR,1723052785
125,laascaanood,8.4774,47.3597,83.82,42,70,23.96,SO,1723052787
126,kerikeri,-35.2268,173.9474,48.2,88,56,3.85,NZ,1723052788
127,mantua,45.1667,10.7833,74.95,68,35,6.26,IT,1723052789
128,pandan,14.0453,124.1694,81.5,85,43,8.14,PH,1723052791
129,miracema do tocantins,-9.5618,-48.3967,99.03,15,0,2.13,BR,1723052792
130,papatowai,-46.5619,169.4708,44.87,90,100,9.66,NZ,1723052793
131,albertina,-22.2008,-46.6158,82.8,18,0,6.96,BR,1723052794
132,aykhal,66.0,111.5,53.62,57,65,8.12,RU,1723052796
133,hermanus,-34.4187,19.2345,50.81,87,3,11.7,ZA,1723052797
134,walvis bay,-22.9575,14.5053,54.09,85,0,8.41,NA,1723052798
135,viedma,-40.8135,-62.9967,44.33,70,100,21.74,AR,1723052799
136,nagqu,31.5,92.0,43.52,71,86,3.83,CN,1723052801
137,cabo san lucas,22.8909,-109.9124,90.18,71,20,6.91,MX,1723052703
138,margaret river,-33.95,115.0667,55.94,65,27,11.36,AU,1723052804
139,chui,-33.6971,-53.4616,60.1,71,100,12.33,UY,1723052805
140,daska kalan,32.3243,74.3497,84.18,78,94,10.2,PK,1723052806
141,piacabucu,-10.4056,-36.4344,78.66,62,4,9.22,BR,1723052807
142,chern',53.4523,36.9145,61.09,87,99,1.21,RU,1723052808
143,mahina,-17.5065,-149.489,78.57,73,75,4.61,PF,1723052811
144,westport,41.1415,-73.3579,66.56,84,100,11.5,US,1723052812
145,port blair,11.6667,92.75,81.61,83,96,7.67,IN,1723052813
146,agat village,13.3886,144.6585,82.51,88,0,0.0,GU,1723052814
147,muroto-misakicho,33.2833,134.15,82.44,80,53,5.19,JP,1723052815
148,kanniyakumari,8.0833,77.5667,80.13,79,100,16.82,IN,1723052816
149,cockburn town,21.4612,-71.1419,82.62,80,100,14.74,TC,1723052817
150,javea,38.7833,0.1667,87.39,73,1,5.99,ES,1723052819
151,bengkulu,-3.8004,102.2655,74.53,90,98,3.49,ID,1723052821
152,banjarmasin,-3.3244,114.591,77.14,98,65,1.57,ID,1723052669
153,hohhot,40.8106,111.6522,64.69,82,0,4.47,CN,1723052823
154,fort mcmurray,56.7268,-111.381,65.79,52,0,4.61,CA,1723052824
155,ancud,-41.8697,-73.8203,47.93,68,3,3.76,CL,1723052825
156,cooper's town,26.8667,-77.5167,84.65,74,57,17.36,BS,1723052827
157,avarua,-21.2078,-159.775,73.45,73,20,9.22,CK,1723052828
158,kamina,-8.7386,24.9906,70.63,18,74,4.18,CD,1723052829
159,tuscania,42.4206,11.8712,87.26,73,20,8.55,IT,1723052830
160,yakeshi,49.2833,120.7333,57.16,89,18,2.55,CN,1723052831
161,chimore,-16.9833,-65.1333,81.19,73,38,1.59,BO,1723052832
162,tazacorte,28.629,-17.9293,77.97,77,20,11.5,ES,1723052833
163,ambon,-3.6954,128.1814,78.94,89,40,5.75,ID,1723052835
164,mindresti,47.5072,28.2769,75.94,49,89,2.33,MD,1723052837
165,arilje,43.7531,20.0956,80.96,46,80,4.09,RS,1723052838
166,noumea,-22.2763,166.4572,70.0,99,100,9.28,NC,1723052839
167,ballina,-28.8667,153.5667,48.78,70,15,7.63,AU,1723052840
168,taltal,-25.4,-70.4833,60.67,66,1,8.43,CL,1723052841
169,vila velha,-20.3297,-40.2925,82.35,68,20,16.11,BR,1723052623
170,porbandar,21.6422,69.6093,82.18,83,100,18.32,IN,1723052844
171,narathiwat,6.3333,101.75,74.82,94,73,3.36,TH,1723052845
172,hobyo,5.3505,48.5268,76.23,87,85,22.35,SO,1723052846
173,boa vista,2.8197,-60.6733,87.78,58,40,6.91,BR,1723052847
174,morki,56.4303,48.9947,61.12,97,67,4.92,RU,1723052848
175,carhuaz,-9.2819,-77.6447,70.68,21,27,6.15,PE,1723052849
176,nogliki,51.8333,143.1667,55.45,97,100,8.03,RU,1723052850
177,huaicheng,23.9051,112.1931,79.93,78,5,0.78,CN,1723052855
178,haiku-pauwela,20.9219,-156.3051,77.25,79,14,8.01,US,1723052856
179,homer,59.6425,-151.5483,60.69,73,100,6.91,US,1723052858
180,bhor,18.1667,73.85,73.65,97,100,7.38,IN,1723052859
181,mount pearl,47.5166,-52.7813,71.46,60,75,19.57,CA,1723052860
182,adam,22.3756,57.5233,91.99,47,59,13.91,OM,1723052861
183,eyl,7.9803,49.8164,78.1,82,19,27.81,SO,1723052863
184,nasrullahganj,22.6833,77.2667,77.0,88,99,6.49,IN,1723052864
185,hasaki,35.7333,140.8333,79.2,90,100,4.18,JP,1723052865
186,tchintabaraden,15.8969,5.7985,91.49,42,95,11.43,NE,1723052867
187,broadstairs,51.3591,1.4394,67.77,65,100,1.01,GB,1723052869
188,cam ranh,11.9214,109.1591,84.16,79,20,2.3,VN,1723052870
189,charlottetown,46.2352,-63.1267,75.78,50,75,12.66,CA,1723052872
190,karratha,-20.7377,116.8463,69.39,38,2,8.25,AU,1723052873
191,hirara,24.8,125.2833,82.67,100,100,6.91,JP,1723052876
192,castillos,-34.1667,-53.8333,59.4,64,100,12.68,UY,1723052877
193,saint-pierre,-21.3393,55.4781,67.68,73,0,8.05,RE,1723052878
194,hovd,48.0056,91.6419,67.23,40,99,2.44,MN,1723052880
195,cacheu,12.2706,-16.1658,80.69,77,94,10.78,GW,1723052882
196,abadan,30.3392,48.3043,102.15,19,0,6.91,IR,1723052884
197,jamestown,42.097,-79.2353,75.56,59,75,11.5,US,1723052885
198,embi,48.8264,58.1442,82.02,43,10,6.78,KZ,1723052886
199,san juan de miraflores,-12.1629,-76.9635,63.18,83,93,9.4,PE,1723052888
200,chake chake,-5.2459,39.7666,78.75,83,75,9.22,TZ,1723052889
201,broome,42.2506,-75.833,72.43,77,100,6.91,US,1723052891
202,berezovyy,51.6667,135.7,65.03,98,100,2.77,RU,1723052892
203,tokar,18.4254,37.729,83.44,62,100,20.11,SD,1723052893
204,toliara,-23.35,43.6667,72.05,73,0,7.45,MG,1723052894
205,onega,63.9061,38.1404,56.7,66,27,6.73,RU,1723052896
206,grootfontein,-19.5667,18.1167,71.17,17,0,3.44,NA,1723052897
207,oriximina,-1.7656,-55.8661,94.12,37,14,5.39,BR,1723052898
208,san patricio,28.017,-97.5169,96.67,38,0,2.01,US,1723052899
209,brigantine,39.4101,-74.3646,77.2,93,100,9.22,US,1723052901
210,wynyard,-41.0,145.7167,50.49,92,86,6.73,AU,1723052902
211,bratsk,56.1325,101.6142,59.49,93,100,5.14,RU,1723052904
212,xiaoweizhai,26.1903,107.5125,70.79,98,4,4.12,CN,1723052905
213,anchau,10.9597,8.3916,71.37,91,95,7.07,NG,1723052906
214,tual,-5.6667,132.75,77.72,83,99,19.89,ID,1723052907
215,badger,64.8,-147.5333,69.82,63,75,4.61,US,1723052908
216,nizhnesortymskiy,62.4397,71.7603,53.76,62,76,13.76,RU,1723052910
217,kourou,5.1552,-52.6478,89.65,65,24,9.33,GF,1723052912
218,nurlat,54.4277,50.8051,64.17,78,75,1.34,RU,1723052913
219,slyudyanka,51.6594,103.7061,57.43,93,37,4.79,RU,1723052915
220,singkil,-7.9855,111.4161,75.02,89,12,4.27,ID,1723052916
221,kurchatov,51.6601,35.6521,71.42,78,94,8.28,RU,1723052917
222,keflavik,64.0049,-22.5624,60.71,72,0,11.5,IS,1723052918
223,caleta de carquin,-11.0925,-77.6267,66.0,75,64,11.7,PE,1723052920
224,mugia,43.1041,-9.2179,74.16,77,5,21.63,ES,1723052921
225,booue,-0.0921,11.9385,82.85,53,96,7.09,GA,1723052922
226,nova vicosa,-17.8919,-39.3719,76.15,61,100,6.02,BR,1723052923
227,uturoa,-16.7333,-151.4333,78.66,79,7,10.78,PF,1723052924
228,saint-philippe,-21.3585,55.7679,67.59,73,2,6.33,RE,1723052925
229,rawai,7.7797,98.3253,78.91,73,100,5.95,TH,1723052926
230,monrovia,6.3005,-10.7969,78.57,76,96,10.92,LR,1723052928
231,weno,7.4515,151.8468,82.35,78,100,4.61,FM,1723052929
232,worthing,50.8145,-0.3713,66.88,74,20,13.8,GB,1723052932
233,chhor,25.5167,69.7667,85.15,66,99,18.39,PK,1723052933
234,udachny,66.4167,112.4,55.04,54,78,7.94,RU,1723052935
235,mili,6.0815,171.735,78.12,86,100,14.12,MH,1723052936
236,howrah,22.5892,88.3103,82.4,89,40,4.61,IN,1723052937
237,ushuaia,-54.8,-68.3,35.26,64,0,2.3,AR,1723052938
238,mount isa,-20.7333,139.5,51.57,46,0,8.05,AU,1723052939
239,kuragino,53.8975,92.6725,56.84,92,76,4.05,RU,1723052940
240,lebu,-37.6167,-73.65,49.19,62,0,12.59,CL,1723052831
241,koungou,-12.7336,45.2042,74.91,83,0,2.3,YT,1723052942
242,togur,58.3631,82.8265,55.09,92,72,5.53,RU,1723052944
243,pisco,-13.7,-76.2167,66.25,63,75,10.36,PE,1723052945
244,labytnangi,66.6572,66.4183,47.75,79,16,5.1,RU,1723052946
245,gadzhiyevo,69.2551,33.3362,60.96,59,7,3.0,RU,1723052947
246,ugine,45.7508,6.4161,81.93,86,1,2.39,FR,1723052948
247,redding,40.5865,-122.3917,96.91,20,0,3.44,US,1723052829
248,lodwar,3.1191,35.5973,89.15,38,79,0.16,KE,1723052951
249,maragogi,-9.0122,-35.2225,77.7,66,73,8.99,BR,1723052676
250,porto murtinho,-21.6989,-57.8825,74.26,62,100,9.04,BR,1723052953
251,minas de marcona,-15.2119,-75.1103,54.48,78,85,24.34,PE,1723052954
252,changleng,28.7,115.8167,87.1,62,0,4.76,CN,1723052956
253,alesund,62.4723,6.1549,63.09,88,75,2.3,NO,1723052957
254,vilyuchinsk,52.9306,158.4028,57.47,90,91,7.02,RU,1723052958
255,ceeldheer,3.8488,47.1806,76.53,84,91,17.07,SO,1723052959
256,esfarayen,37.0765,57.5101,83.86,27,0,3.58,IR,1723052961
257,novyy urgal,51.0736,132.5642,62.85,82,100,1.03,RU,1723052962
258,tarinkot,32.6268,65.8733,86.9,18,0,2.75,AF,1723052963
259,kill devil hills,36.0307,-75.676,76.98,97,100,5.75,US,1723052738
260,juan griego,11.0817,-63.9655,96.93,52,39,17.27,VE,1723052966
261,isla vista,34.4133,-119.861,89.91,52,12,7.74,US,1723052968
262,tregunc,47.85,-3.85,67.86,68,99,9.91,FR,1723052969
263,elmali,36.7358,29.9177,79.12,52,78,3.98,TR,1723052970
264,ust-tsilma,65.441,52.1498,55.74,66,6,4.21,RU,1723052972
265,tolanaro,-25.0319,46.9987,69.87,78,75,16.11,MG,1723052973
266,ipira,-12.1583,-39.7372,80.2,51,93,9.8,BR,1723052974
267,los andes,-32.8337,-70.5983,47.59,73,18,3.18,CL,1723052975
268,mancio lima,-7.6142,-72.8958,87.87,62,75,4.61,BR,1723052976
269,danville,36.586,-79.395,83.43,77,100,11.5,US,1723052867
270,scottburgh,-30.2867,30.7532,66.52,87,15,11.05,ZA,1723052978
271,nemuro,43.3236,145.575,62.49,100,100,6.93,JP,1723052980
272,touros,-5.1989,-35.4608,81.16,68,35,19.51,BR,1723052981
273,helena valley west central,46.6629,-112.0604,66.72,72,100,4.61,US,1723052982
274,gobabis,-22.45,18.9667,67.33,15,0,9.19,NA,1723052983
275,puerto ayora,-0.7393,-90.3518,75.16,88,65,8.01,EC,1723052984
276,carnarvon,-24.8667,113.6333,65.43,77,16,9.33,AU,1723052985
277,tanjung pandan,-2.75,107.65,76.71,94,100,6.62,ID,1723052986
278,saint-jean-de-monts,46.7833,-2.0667,66.34,70,74,10.8,FR,1723052988
279,rikaze,29.25,88.8833,57.65,55,94,5.32,CN,1723052989
280,portland,45.5234,-122.6762,72.99,66,0,4.0,US,1723052990
281,talnakh,69.4865,88.3972,50.86,63,0,13.22,RU,1723052991
282,la sarre,48.8002,-79.1996,70.27,41,55,7.11,CA,1723052718
283,olesno,50.877,18.4209,72.25,54,93,2.93,PL,1723052993
284,holualoa,19.6228,-155.9522,74.88,86,40,3.44,US,1723052994
285,prado,-17.3411,-39.2208,76.93,59,46,7.09,BR,1723052996
286,lorengau,-2.0226,147.2712,80.87,81,37,9.51,PG,1723052997
287,puerto baquerizo moreno,-0.9,-89.6,70.79,94,75,12.66,EC,1723052834
288,port lincoln,-34.7333,135.8667,56.68,56,80,22.17,AU,1723052999
289,ciudad lazaro cardenas,17.9583,-102.2,87.91,59,100,9.01,MX,1723053000
290,hadibu,12.65,54.0333,78.76,81,21,18.25,YE,1723053001
291,las khorey,11.1595,48.1967,89.71,58,39,5.1,SO,1723053002
292,seybaplaya,19.65,-90.6667,88.7,56,27,9.42,MX,1723053003
293,machico,32.7,-16.7667,81.72,71,20,14.97,PT,1723053005
294,port macquarie,-31.4333,152.9167,48.88,79,81,3.98,AU,1723053006
295,hanting,36.7708,119.2108,78.24,89,100,2.46,CN,1723053007
296,smithers,54.7804,-127.1743,66.52,45,0,2.3,CA,1723053008
297,coquimbo,-29.9533,-71.3436,56.93,71,75,8.05,CL,1723052989
298,kapa'a,22.0752,-159.319,79.12,80,0,12.66,US,1723053012
299,nova sintra,14.8667,-24.7167,78.98,81,54,12.82,CV,1723053013
300,mezhdurechensk,53.6942,88.0603,58.6,98,78,3.13,RU,1723053014
301,waingapu,-9.6567,120.2641,74.75,84,2,10.4,ID,1723053015
302,sinabang,2.4803,96.3801,80.06,83,98,8.9,ID,1723053016
303,aral,40.5156,81.2636,80.1,45,0,6.08,CN,1723053017
304,gaspe,48.8334,-64.4819,67.91,59,75,8.05,CA,1723052901
305,taunggyi,20.7833,97.0333,65.07,98,100,3.71,MM,1723053020
306,cadale,2.7603,46.3222,77.47,82,83,17.9,SO,1723053021
307,yelenendorf,40.5869,46.3158,80.11,58,75,9.22,AZ,1723053022
308,bandarbeyla,9.4942,50.8122,77.61,86,2,31.85,SO,1723053023
309,kokoda,-8.8785,147.7407,74.73,99,99,1.5,PG,1723053024
310,sarangani,5.4033,125.4636,81.82,81,100,9.73,PH,1723053025
311,geraldton,-28.7667,114.6,55.81,94,100,5.75,AU,1723053026
312,usogorsk,63.4106,48.6872,55.71,61,7,4.09,RU,1723053028
313,soio,-6.1349,12.3689,70.88,82,92,7.56,AO,1723053029
314,tapon,10.0631,123.4453,80.42,83,92,3.89,PH,1723053030
315,novodvinsk,64.4165,40.8122,60.55,63,52,4.59,RU,1723053031
316,sitka,57.0531,-135.33,55.29,100,100,0.0,US,1723053032
317,pali,25.7667,73.3333,81.14,76,98,13.18,IN,1723053033
318,yuzhno-kurilsk,44.0306,145.8556,63.7,99,100,5.32,RU,1723053034
319,port augusta,-32.5,137.7667,51.15,58,91,13.51,AU,1723053036
320,beyneu,45.3167,55.2,93.83,27,38,13.4,KZ,1723053037
321,grindsted,55.754,8.9123,68.34,73,75,10.36,DK,1723053038
322,vernon,50.2581,-119.2691,79.61,40,1,4.0,CA,1723052446
323,greenville,35.6127,-77.3663,78.96,98,100,8.05,US,1723052571
324,tura,25.5198,90.2201,75.4,97,67,7.16,IN,1723053041
325,teguise,29.0605,-13.564,79.02,51,20,17.27,ES,1723053043
326,sakakah,29.9697,40.2064,94.57,11,0,10.31,SA,1723053044
327,kenora,49.8167,-94.4337,65.37,82,100,13.8,CA,1723053045
328,longyearbyen,78.2186,15.6401,51.64,93,100,4.61,SJ,1723053046
329,tindouf,27.6711,-8.1474,113.45,7,40,4.61,DZ,1723053048
330,iskilip,40.7353,34.4739,70.25,64,41,7.83,TR,1723053049
331,faya-largeau,17.9257,19.1043,98.22,31,95,10.04,TD,1723053051
332,kruisfontein,-34.0033,24.7314,54.88,51,67,5.99,ZA,1723052822
333,alo,6.5486,4.2686,77.56,81,94,9.4,NG,1723053054
334,reggane,26.7158,0.1714,109.98,8,1,12.55,DZ,1723053055
335,agadez,19.75,10.25,99.73,16,99,8.3,NE,1723053056
336,ola,59.5833,151.2833,52.25,90,94,3.36,RU,1723053057
337,iskateley,67.6803,53.1512,45.48,86,6,8.77,RU,1723053058
338,januaria,-15.4833,-44.3667,82.36,40,45,5.28,BR,1723053060
339,tshikapa,-6.4167,20.8,85.03,16,68,4.25,CD,1723053062
340,chonchi,-42.6128,-73.8092,52.12,69,12,2.48,CL,1723053063
341,qamdo,31.1667,97.2333,50.67,68,73,5.82,CN,1723053064
342,lae,-6.7221,146.9847,73.94,87,98,3.44,PG,1723053065
343,newman,37.3138,-121.0208,89.94,10,0,3.06,US,1723053066
344,xinqing,48.2333,129.5,63.64,98,38,2.91,CN,1723053067
345,lanxi,29.2195,119.477,76.15,89,100,0.43,CN,1723053068
346,atafu village,-8.5421,-172.5159,83.03,68,100,20.56,TK,1723053070
347,ban su-ngai pa di,6.0724,101.8717,76.59,97,74,1.54,TH,1723053071
348,mahalapye,-23.1041,26.8142,66.42,33,0,7.45,BW,1723053072
349,dunedin,-45.8742,170.5036,46.85,75,100,3.69,NZ,1723052788
350,sergeyevka,53.88,67.4158,66.61,71,95,5.68,KZ,1723053074
351,puerto madryn,-42.7692,-65.0385,45.81,51,72,17.98,AR,1723053075
352,leitchfield,37.48,-86.2939,81.25,94,98,6.64,US,1723053076
353,cabedelo,-6.9811,-34.8339,83.07,73,67,17.25,BR,1723053078
354,xai-xai,-25.0519,33.6442,64.44,76,0,8.5,MZ,1723053079
355,tukrah,32.5341,20.5791,82.33,66,0,11.21,LY,1723053080
356,tiassale,5.8983,-4.8283,76.95,74,100,5.03,CI,1723053081
357,la'ie,21.6477,-157.9253,80.06,73,77,5.99,US,1723053082
358,samfya,-11.3649,29.5565,68.9,27,47,8.01,ZM,1723053085
359,wellington,-41.2866,174.7756,51.46,82,100,21.85,NZ,1723053086
360,quesada,10.3238,-84.4271,78.6,98,100,3.58,CR,1723053087
361,anna regina,7.2644,-58.5077,86.07,62,28,6.76,GY,1723053088
362,akureyri,65.6835,-18.0878,48.13,81,100,10.36,IS,1723053089
363,sinjai,-5.1241,120.253,74.97,88,75,1.39,ID,1723053091
364,nathdwara,24.9333,73.8167,75.69,87,89,7.0,IN,1723053092
365,paragominas,-2.9667,-47.4833,97.23,25,1,5.21,BR,1723053093
366,chibougamau,49.9168,-74.3659,58.62,67,100,9.22,CA,1723053094
367,priargunsk,50.3691,119.1012,57.27,84,6,3.74,RU,1723053097
368,corner brook,48.9667,-57.9484,69.96,44,89,15.05,CA,1723053098
369,sidney,-33.8679,151.2073,46.36,89,4,9.22,AU,1723053054
370,ma'rib,15.4591,45.3253,89.22,33,66,8.08,YE,1723053101
371,chukhloma,58.7525,42.6825,58.12,95,97,4.76,RU,1723053102
372,lompoc,34.6391,-120.4579,84.34,64,0,8.05,US,1723053103
373,port alfred,-33.5906,26.891,64.35,52,97,6.44,ZA,1723053104
374,lubumbashi,-11.6609,27.4794,67.39,26,48,2.71,CD,1723053105
375,revda,56.801,59.9303,57.36,95,99,8.5,RU,1723053107
376,ugoofaaru,5.6667,73.0,82.4,75,92,13.06,MV,1723053108
377,kirakira,-10.4544,161.9205,77.59,87,100,12.15,SB,1723053109
378,ishigaki,24.3448,124.1572,80.73,100,90,2.3,JP,1723053110
379,malango,-2.9627,119.9001,65.79,99,96,1.54,ID,1723053111
380,karamay,45.6004,84.8661,83.89,21,91,11.23,CN,1723053112
381,guadalupe,25.6833,-100.25,93.22,49,89,5.28,MX,1723052883
382,taitung city,22.7583,121.1444,81.61,80,99,4.03,TW,1723053115
383,darab,28.7519,54.5444,93.49,26,53,3.53,IR,1723053116
384,broken hill,-31.95,141.4333,48.25,70,39,10.25,AU,1723053117
385,baotou,40.6522,109.8222,75.09,55,1,8.61,CN,1723053118
386,macas,-2.3167,-78.1167,82.15,57,40,8.05,EC,1723053119
387,spas-klepiki,55.1347,40.1767,61.75,84,100,2.51,RU,1723053120
388,kununurra,-15.7667,128.7333,66.18,72,78,1.14,AU,1723053121
389,toyooka,35.5333,134.8333,71.85,92,3,1.95,JP,1723052976
390,mulayjah,27.271,48.4242,97.61,18,12,3.89,SA,1723053124
391,sao felix do xingu,-6.6447,-51.995,99.0,16,1,3.31,BR,1723053125
392,ouani,-12.1322,44.4258,77.16,72,7,5.57,KM,1723053126
393,bousso,10.4795,16.7117,78.33,78,88,6.17,TD,1723053127
394,california city,35.1258,-117.9859,99.57,15,0,11.5,US,1723053128
395,salalah,17.0151,54.0924,77.09,94,100,5.75,OM,1723053129
396,lihue,21.9789,-159.3672,78.39,77,0,12.66,US,1723053131
397,bayganin,48.6947,55.8742,83.25,40,13,17.67,KZ,1723053132
398,krasnovishersk,60.4078,57.082,52.38,82,98,2.68,RU,1723053133
399,monteros,-27.1674,-65.4983,61.07,40,80,5.84,AR,1723053134
400,crane,31.3974,-102.3501,95.2,23,0,5.17,US,1723053135
401,aracati,-4.5617,-37.7697,87.28,51,6,17.34,BR,1723053136
402,camana,-16.6228,-72.7111,60.3,86,100,12.82,PE,1723053137
403,wau,7.7029,27.9953,74.12,85,100,1.52,SS,1723053139
404,ingeniero jacobacci,-41.3427,-69.5448,40.41,49,11,4.45,AR,1723053140
405,aleg,17.0481,-13.9209,94.35,46,92,11.48,MR,1723053141
406,liwale,-9.7667,37.9333,69.19,41,3,3.4,TZ,1723053142
407,nova olinda do norte,-3.8881,-59.0942,103.05,20,2,3.06,BR,1723053143
408,praia,14.9215,-23.5087,84.74,70,75,5.75,CV,1723053144
409,selfoss,63.9331,-20.9971,55.29,77,51,7.54,IS,1723053145
410,humaita,-7.5061,-63.0208,103.03,19,25,3.13,BR,1723053147
411,sidareja,-7.4846,108.7923,73.62,94,81,1.45,ID,1723053148
412,antonio enes,-16.2325,39.9086,72.68,72,11,9.48,MZ,1723053150
413,kili,5.6439,169.1211,78.49,89,100,20.58,MH,1723053151
414,kovalam,8.3667,76.9967,80.69,83,75,9.22,IN,1723053152
415,oranjemund,-28.55,16.4333,54.54,88,0,2.98,NA,1723053154
416,hoopstad,-27.8327,25.9083,58.17,24,58,6.76,ZA,1723053155
417,tiflet,33.8947,-6.3065,73.99,31,0,12.88,MA,1723053156
418,bardai,11.65,7.2333,72.75,92,97,6.31,NG,1723053157
419,tokmok,42.8417,75.3016,76.6,25,10,4.32,KG,1723053158
420,fomboni,-12.28,43.7425,77.68,71,1,12.64,KM,1723053159
421,salahonda,2.1019,-78.7217,78.89,81,54,13.51,CO,1723053160
422,egilsstadir,65.2653,-14.3948,51.71,76,75,11.5,IS,1723053161
423,teshi old town,5.5836,-0.1072,77.0,76,95,15.28,GH,1723053163
424,amga,60.8953,131.9608,46.15,94,25,2.46,RU,1723053164
425,araguaina,-7.1911,-48.2072,99.18,16,1,5.23,BR,1723052969
426,mariinsk,56.2139,87.7472,59.72,97,51,4.79,RU,1723053166
427,kolokani,13.5728,-8.0339,81.93,76,100,6.42,ML,1723053167
428,mashhad,36.297,59.6062,82.54,30,0,4.61,IR,1723053004
429,kenai,60.5544,-151.2583,56.14,96,100,4.61,US,1723053169
430,patterson,37.4716,-121.1297,87.75,11,0,5.17,US,1723053135
431,werder,52.3787,12.934,82.09,94,87,21.27,DE,1723053172
432,utrik,11.2278,169.8474,82.99,76,100,14.27,MH,1723053173
433,plettenberg bay,-34.0527,23.3716,57.56,59,31,5.01,ZA,1723053174
434,katsuura,35.1333,140.3,78.03,94,85,2.04,JP,1723053175
435,riversdale,18.1659,-76.9642,92.05,65,100,3.04,JM,1723053176
436,caister-on-sea,52.6481,1.7265,70.03,58,65,13.11,GB,1723053178
437,brookings,44.3114,-96.7984,72.18,81,76,13.15,US,1723053059
438,maasin,10.1336,124.8447,81.39,79,100,4.36,PH,1723053181
439,ribeira brava,32.65,-17.0667,81.72,70,15,6.82,PT,1723053182
440,stephenville,32.2207,-98.2023,100.17,28,0,5.75,US,1723052892
441,la foa,-21.7108,165.8276,65.37,76,100,4.0,NC,1723053185
442,asaita,11.5636,41.4394,92.84,46,36,1.83,ET,1723053186
443,fort st. john,56.2499,-120.8529,64.29,72,20,8.05,CA,1723053187
444,barranca,-10.75,-77.7667,65.19,75,67,11.43,PE,1723053188
445,murzuq,25.9155,13.9184,96.37,10,0,10.78,LY,1723053189
446,manali,13.1667,80.2667,84.29,89,100,5.73,IN,1723053190
447,kingscliff,-28.2667,153.5667,60.6,67,15,10.36,AU,1723053191
448,carhaix-plouguer,48.2759,-3.5733,65.55,65,89,7.23,FR,1723053193
449,kagizman,40.1567,43.1342,71.87,59,67,6.2,TR,1723053194
450,krasnyy chikoy,50.3643,108.7512,55.49,94,77,1.83,RU,1723053195
451,dryden,49.7833,-92.7503,62.89,94,100,12.66,CA,1723053196
452,khandyga,62.6667,135.6,46.42,96,55,2.84,RU,1723053197
453,port douglas,-16.4833,145.4667,69.55,90,54,7.85,AU,1723053198
454,okulovka,58.4008,33.2908,58.48,95,45,3.98,RU,1723053199
455,anaconda,46.1285,-112.9423,65.39,30,12,4.61,US,1723053201
456,n'zeto,-7.2312,12.8666,71.2,81,94,6.08,AO,1723053202
457,narvik,68.4384,17.4272,78.21,53,4,6.78,NO,1723053203
458,pangody,65.85,74.4859,48.29,76,100,11.68,RU,1723053204
459,san luis de la loma,17.2706,-100.8939,89.29,59,84,10.85,MX,1723053205
460,uzgen,40.7699,73.3007,74.82,27,0,6.46,KG,1723053206
461,mundri,-6.9558,111.71,74.71,85,27,4.81,ID,1723053208
462,novyy urengoy,66.0833,76.6333,53.83,64,73,12.19,RU,1723053209
463,lubango,-14.9172,13.4925,71.46,43,4,3.44,AO,1723053210
464,oskarshamn,57.2645,16.4484,69.98,71,78,8.48,SE,1723053211
465,sungailiat,-1.85,106.1333,80.51,81,100,11.54,ID,1723053212
466,alofi,-19.0595,-169.9187,64.29,82,100,3.44,NU,1723053214
467,ormond-by-the-sea,29.3491,-81.0665,90.01,71,75,11.5,US,1723053216
468,tizimin,21.15,-88.15,92.93,51,97,5.46,MX,1723053217
469,balqash,46.8481,74.995,77.34,42,84,7.05,KZ,1723053218
470,holbrook,40.8123,-73.0784,66.67,94,100,11.5,US,1723052970
471,taoudenni,22.6783,-3.9836,114.96,5,9,15.23,ML,1723053220
472,borba,-4.3878,-59.5939,102.36,21,2,3.02,BR,1723053222
473,kolonia town,6.964,158.206,75.2,94,20,4.61,FM,1723053223
474,anloga,5.7947,0.8973,76.78,79,92,16.82,GH,1723053225
475,taozhuang,34.85,117.3333,79.03,90,100,5.23,CN,1723053226
476,rybinsk,58.0446,38.8426,59.4,95,45,4.88,RU,1723053227
477,kpandu,6.9954,0.2931,79.27,77,98,4.83,GH,1723053228
478,srednebelaya,50.6594,128.0106,64.78,97,77,1.61,RU,1723053229
479,southwell,53.078,-0.9554,68.34,60,100,10.0,GB,1723053230
480,tanjung pinang,0.9167,104.45,82.44,75,100,8.46,ID,1723053232
481,timaru,-44.4,171.25,44.78,65,94,4.43,NZ,1723053233
482,ambagarh chauki,20.7833,80.7167,73.22,97,100,8.01,IN,1723053234
483,wildwood,38.5828,-90.6629,75.34,74,100,8.05,US,1723053235
484,dawson creek,55.7666,-120.2362,69.44,52,0,8.05,CA,1723053236
485,al bawiti,28.3492,28.8659,91.67,23,0,7.81,EG,1723053237
486,val-d'or,48.1002,-77.7828,68.09,45,40,0.0,CA,1723053238
487,vorkuta,67.5,64.0,47.93,71,4,5.61,RU,1723053240
488,rodino,52.5,80.25,65.62,89,100,8.86,RU,1723053241
489,turpan,42.9333,89.1667,84.45,35,100,9.78,CN,1723053242
490,al kharijah,25.4514,30.5464,96.13,16,0,11.01,EG,1723053243
491,masterton,-40.9597,175.6575,49.89,69,100,8.46,NZ,1723053244
492,leava,-14.3,-178.1667,77.85,65,76,20.89,WF,1723053245
493,ketchikan,55.3422,-131.6461,61.27,88,20,6.91,US,1723053246
494,lautoka,-17.6167,177.4667,62.46,77,20,0.0,FJ,1723053248
495,jabat,7.75,168.9751,74.34,89,100,5.23,MH,1723053249
496,hilo,19.7297,-155.09,78.12,83,100,1.01,US,1723053250
497,matoury,4.8483,-52.3317,89.56,70,20,13.8,GF,1723053251
498,kachug,53.9606,105.8817,54.46,95,56,1.68,RU,1723053252
499,laojunmiao,39.8333,97.7333,75.63,29,75,11.36,CN,1723053253
500,jaffna,9.6685,80.0074,81.72,84,99,15.14,LK,1723053254
501,vadlamuru,17.0954,82.1656,79.09,94,100,9.01,IN,1723053256
502,salekhard,66.53,66.6019,47.95,78,3,5.61,RU,1723053257
503,mineiros,-17.5694,-52.5511,87.93,19,0,8.63,BR,1723053259
504,abra pampa,-22.7205,-65.697,53.35,4,0,31.14,AR,1723053260
505,griffith,41.5284,-87.4237,78.53,68,0,13.8,US,1723053261
506,ankazobe,-18.3167,47.1167,55.53,77,1,4.85,MG,1723053262
507,robertsport,6.7533,-11.3686,78.3,78,99,13.76,LR,1723053264
508,santana,-0.0583,-51.1817,93.38,62,40,6.91,BR,1723053265
509,turochak,52.2576,87.1224,59.56,97,100,2.77,RU,1723053266
510,bintulu,3.1667,113.0333,75.61,100,40,0.0,MY,1723053267
511,marang,5.2056,103.2059,78.71,89,89,4.16,MY,1723053268
512,prachuap khiri khan,12.2167,99.75,78.03,80,67,4.83,TH,1723053269
513,st. john's,47.5649,-52.7093,72.28,60,75,19.57,CA,1723053270
514,carry-le-rouet,43.3314,5.1524,91.81,40,0,8.05,FR,1723053272
515,klaksvik,62.2266,-6.589,54.52,96,77,10.67,FO,1723053273
516,tralee,52.2704,-9.7026,59.25,94,75,14.97,IE,1723053274
517,calabozo,8.9242,-67.4293,86.92,69,71,2.8,VE,1723053275
518,bay roberts,47.5999,-53.2648,72.66,67,95,8.99,CA,1723053276
519,san luis,-33.295,-66.3356,48.97,36,33,18.25,AR,1723053277
520,ipilan,8.8431,117.9033,79.7,86,100,4.7,PH,1723053278
521,cudillero,43.5622,-6.1459,70.11,79,75,8.05,ES,1723053046
522,langepas,61.2544,75.2124,47.93,78,67,7.18,RU,1723053281
523,lagos,6.5833,3.75,80.92,79,93,7.78,NG,1723053233
524,eraan,9.0629,117.7016,78.13,85,97,4.03,PH,1723053283
525,port-vila,-17.7338,168.3219,65.8,94,75,2.3,VU,1723053284
526,tank,32.2217,70.3793,98.17,41,83,9.89,PK,1723053285
527,santa rosa,14.3122,121.1114,82.38,92,26,9.1,PH,1723053046
528,soroti,1.7146,33.6111,73.94,61,87,4.59,UG,1723053291
529,youhao,47.8667,128.8333,65.62,96,69,2.51,CN,1723053293
530,ngorongoro,-3.2397,35.4875,55.71,47,32,3.56,TZ,1723053295
531,ouargla,31.9493,5.325,105.87,14,0,6.91,DZ,1723053296
532,saint-gilles,43.6766,4.4302,93.49,33,0,8.05,FR,1723053297
533,ghat,24.9647,10.1728,99.07,9,3,13.98,LY,1723053298
534,hailey,43.5196,-114.3153,83.8,21,0,14.97,US,1723053299
535,bobo-dioulasso,11.1771,-4.2979,88.25,62,20,5.75,BF,1723053300
536,zaozersk,69.4005,32.4476,59.99,64,9,3.87,RU,1723053302
537,porto barra do ivinheima,-22.9667,-53.6667,95.61,16,4,11.36,BR,1723053303
538,birao,10.2849,22.7882,73.31,93,71,6.98,CF,1723053305
539,manokwari,-0.8667,134.0833,79.03,75,35,4.38,ID,1723053306
540,kavaratti,10.5669,72.642,80.6,83,100,12.06,IN,1723053307
541,quellon,-43.1167,-73.6167,47.55,78,30,4.99,CL,1723053308
542,macau,22.2006,113.5461,86.72,84,0,5.75,MO,1723053311
543,susuman,62.7833,148.1667,47.75,85,100,3.06,RU,1723053312
544,dock junction,31.2025,-81.5168,82.42,81,100,9.22,US,1723053313
545,massakory,12.996,15.7293,80.42,76,100,7.72,TD,1723053314
546,beaufort west,-32.3567,22.583,60.6,23,51,4.85,ZA,1723053317
547,fort bragg,35.139,-79.006,80.46,89,75,11.5,US,1723053318
548,taungdwingyi,20.0167,95.55,74.82,95,92,7.52,MM,1723053319
549,fisterra,42.9049,-9.2629,74.01,78,0,24.92,ES,1723053320
550,codrington,-38.2667,141.9667,53.01,59,91,18.95,AU,1723053321
551,barreiro do jaiba,-15.6167,-43.6,79.14,45,79,4.63,BR,1723053322
552,yima,34.7381,111.8839,72.28,98,87,8.84,CN,1723053323
553,colonia,50.9333,6.95,74.25,66,20,4.61,DE,1723053313
554,shimanovsk,52.0,127.7,61.88,99,100,3.31,RU,1723053326
555,nouadhibou,20.931,-17.0347,68.22,94,7,19.51,MR,1723053327
556,puquio,-14.7,-74.1333,60.57,8,0,10.63,PE,1723053328
557,princeville,45.7668,-61.2985,74.77,56,0,5.01,CA,1723053329
558,ibshaway,29.358,30.6814,93.31,29,0,16.8,EG,1723053330
559,chamalieres,45.7756,3.0631,75.92,65,40,12.66,FR,1723053331
560,port shepstone,-30.7414,30.455,67.01,81,37,13.38,ZA,1723053333
561,balnearia,-31.0088,-62.6673,62.85,16,84,16.15,AR,1723053334
562,roma,43.2128,-75.4557,77.68,59,40,6.91,US,1723053335
563,fort saskatchewan,53.7168,-113.2187,71.01,61,40,2.3,CA,1723053336
564,happy valley-goose bay,53.3168,-60.3315,59.31,77,75,11.5,CA,1723053337
565,bel ombre,-4.6167,55.4167,78.64,89,20,9.22,SC,1723053338
566,marsh harbour,26.5412,-77.0636,86.32,68,88,17.22,BS,1723053340
567,kirensk,57.7853,108.1119,60.1,93,69,4.63,RU,1723053341
568,mandan,46.8267,-100.8896,62.58,94,75,13.8,US,1723053105
